{
  "roots": [
    {
      "id": 4770,
      "name": "Samoa",
      "type": "COUNTRY",
      "parentId": 3,
      "lookupId": "3.4770",
      "url": "https://www.viator.com/x/d4770-ttd?mcid=42383&pid=P00281144&medium=api&api_version=2.0",
      "center": {
        "latitude": -13.759,
        "longitude": -172.1046
      },
      "children": [
        {
          "id": 50458,
          "name": "Apia",
          "type": "CITY",
          "parentId": 4770,
          "lookupId": "3.4770.50458",
          "url": "https://www.viator.com/x/d50458-ttd?mcid=42383&pid=P00281144&medium=api&api_version=2.0",
          "center": {
            "latitude": -13.83282,
            "longitude": -171.760056
          },
          "children": []
        },
        {
          "id": 50459,
          "name": "Upolu",
          "type": "CITY",
          "parentId": 4770,
          "lookupId": "3.4770.50459",
          "url": "https://www.viator.com/x/d50459-ttd?mcid=42383&pid=P00281144&medium=api&api_version=2.0",
          "center": {
            "latitude": -13.83282,
            "longitude": -171.760056
          },
          "children": []
        }
      ]
    },
    {
      "id": 4772,
      "name": "Vanuatu",
      "type": "COUNTRY",
      "parentId": 3,
      "lookupId": "3.4772",
      "url": "https://www.viator.com/x/d4772-ttd?mcid=42383&pid=P00281144&medium=api&api_version=2.0",
      "center": {
        "latitude": -15.37671,
        "longitude": 166.95916
      },
      "children": [
        {
          "id": 4781,
          "name": "Port Vila",
          "type": "CITY",
          "parentId": 4772,
          "lookupId": "3.4772.4781",
          "url": "https://www.viator.com/x/d4781-ttd?mcid=42383&pid=P00281144&medium=api&api_version=2.0",
          "center": {
            "latitude": -17.732353,
            "longitude": 168.328741
          },
          "children": []
        },
        {
          "id": 25079,
          "name": "Tanna Island",
          "type": "REGION",
          "parentId": 4772,
          "lookupId": "3.4772.25079",
          "url": "https://www.viator.com/x/d25079-ttd?mcid=42383&pid=P00281144&medium=api&api_version=2.0",
          "center": {
            "latitude": -19.51549,
            "longitude": 169.35782
          },
          "children": []
        }
      ]
    },
    {
      "id": 21755,
      "name": "Yemen",
      "type": "COUNTRY",
      "parentId": 1,
      "lookupId": "1.21755",
      "url": "https://www.viator.com/x/d21755-ttd?mcid=42383&pid=P00281144&medium=api&api_version=2.0",
      "center": {
        "latitude": 15.5527,
        "longitude": 48.5164
      },
      "children": []
    },
    {
      "id": 4776,
      "name": "New Caledonia",
      "type": "COUNTRY",
      "parentId": 3,
      "lookupId": "3.4776",
      "url": "https://www.viator.com/x/d4776-ttd?mcid=42383&pid=P00281144&medium=api&api_version=2.0",
      "center": {
        "latitude": -20.9043,
        "longitude": 165.618
      },
      "children": [
        {
          "id": 50289,
          "name": "Grande Terre",
          "type": "CITY",
          "parentId": 4776,
          "lookupId": "3.4776.50289",
          "url": "https://www.viator.com/x/d50289-ttd?mcid=42383&pid=P00281144&medium=api&api_version=2.0",
          "center": {
            "latitude": -21.3109,
            "longitude": 165.4345
          },
          "children": []
        },
        {
          "id": 4780,
          "name": "Noumea",
          "type": "CITY",
          "parentId": 4776,
          "lookupId": "3.4776.4780",
          "url": "https://www.viator.com/x/d4780-ttd?mcid=42383&pid=P00281144&medium=api&api_version=2.0",
          "center": {
            "latitude": -22.25582,
            "longitude": 166.45052
          },
          "children": []
        }
      ]
    },
    {
      "id": 4311,
      "name": "Guadeloupe",
      "type": "COUNTRY",
      "parentId": 4,
      "lookupId": "4.4311",
      "url": "https://www.viator.com/x/d4311-ttd?mcid=42383&pid=P00281144&medium=api&api_version=2.0",
      "center": {
        "latitude": 16.256218,
        "longitude": -61.571405
      },
      "children": [
        {
          "id": 50256,
          "name": "Basse-Terre Island",
          "type": "CITY",
          "parentId": 4311,
          "lookupId": "4.4311.50256",
          "url": "https://www.viator.com/x/d50256-ttd?mcid=42383&pid=P00281144&medium=api&api_version=2.0",
          "center": {
            "latitude": 15.9985,
            "longitude": -61.7254
          },
          "children": []
        },
        {
          "id": 50274,
          "name": "Grande-Terre Island",
          "type": "CITY",
          "parentId": 4311,
          "lookupId": "4.4311.50274",
          "url": "https://www.viator.com/x/d50274-ttd?mcid=42383&pid=P00281144&medium=api&api_version=2.0",
          "center": {
            "latitude": 16.2732,
            "longitude": -61.4669
          },
          "children": [
            {
              "id": 51228,
              "name": "Pointe-a-Pitre",
              "type": "CITY",
              "parentId": 50274,
              "lookupId": "4.4311.50274.51228",
              "url": "https://www.viator.com/x/d51228-ttd?mcid=42383&pid=P00281144&medium=api&api_version=2.0",
              "center": {
                "latitude": 16.2422,
                "longitude": -61.5343
              },
              "children": []
            }
          ]
        }
      ]
    },
    {
      "id": 4321,
      "name": "St Vincent and the Grenadines",
      "type": "COUNTRY",
      "parentId": 4,
      "lookupId": "4.4321",
      "url": "https://www.viator.com/x/d4321-ttd?mcid=42383&pid=P00281144&medium=api&api_version=2.0",
      "center": {
        "latitude": 12.9843,
        "longitude": -61.2872
      },
      "children": [
        {
          "id": 4322,
          "name": "Kingstown",
          "type": "CITY",
          "parentId": 4321,
          "lookupId": "4.4321.4322",
          "url": "https://www.viator.com/x/d4322-ttd?mcid=42383&pid=P00281144&medium=api&api_version=2.0",
          "center": {
            "latitude": 13.160101,
            "longitude": -61.224833
          },
          "children": []
        }
      ]
    },
    {
      "id": 4580,
      "name": "Djibouti",
      "type": "COUNTRY",
      "parentId": 1,
      "lookupId": "1.4580",
      "url": "https://www.viator.com/x/d4580-ttd?mcid=42383&pid=P00281144&medium=api&api_version=2.0",
      "center": {
        "latitude": 11.8251,
        "longitude": 42.5903
      },
      "children": []
    },
    {
      "id": 4583,
      "name": "Eritrea",
      "type": "COUNTRY",
      "parentId": 1,
      "lookupId": "1.4583",
      "url": "https://www.viator.com/x/d4583-ttd?mcid=42383&pid=P00281144&medium=api&api_version=2.0",
      "center": {
        "latitude": 15.1794,
        "longitude": 39.7823
      },
      "children": []
    },
    {
      "id": 4395,
      "name": "Réunion Island",
      "type": "COUNTRY",
      "parentId": 1,
      "lookupId": "1.4395",
      "url": "https://www.viator.com/x/d4395-ttd?mcid=42383&pid=P00281144&medium=api&api_version=2.0",
      "center": {
        "latitude": -21.1351121,
        "longitude": 55.2471124
      },
      "children": []
    },
    {
      "id": 26731,
      "name": "Côte d’Ivoire",
      "type": "COUNTRY",
      "parentId": 1,
      "lookupId": "1.26731",
      "url": "https://www.viator.com/x/d26731-ttd?mcid=42383&pid=P00281144&medium=api&api_version=2.0",
      "center": {
        "latitude": 7.53999,
        "longitude": -5.54708
      },
      "children": [
        {
          "id": 26753,
          "name": "Abidjan",
          "type": "CITY",
          "parentId": 26731,
          "lookupId": "1.26731.26753",
          "url": "https://www.viator.com/x/d26753-ttd?mcid=42383&pid=P00281144&medium=api&api_version=2.0",
          "center": {
            "latitude": 5.35995,
            "longitude": -4.00826
          },
          "children": []
        }
      ]
    },
    {
      "id": 21932,
      "name": "Somalia",
      "type": "COUNTRY",
      "parentId": 1,
      "lookupId": "1.21932",
      "url": "https://www.viator.com/x/d21932-ttd?mcid=42383&pid=P00281144&medium=api&api_version=2.0",
      "center": {
        "latitude": 5.1521,
        "longitude": 46.1996
      },
      "children": []
    },
    {
      "id": 21900,
      "name": "Moldova",
      "type": "COUNTRY",
      "parentId": 6,
      "lookupId": "6.21900",
      "url": "https://www.viator.com/x/d21900-ttd?mcid=42383&pid=P00281144&medium=api&api_version=2.0",
      "center": {
        "latitude": 47.4116,
        "longitude": 28.3699
      },
      "children": [
        {
          "id": 25271,
          "name": "Chisinau",
          "type": "CITY",
          "parentId": 21900,
          "lookupId": "6.21900.25271",
          "url": "https://www.viator.com/x/d25271-ttd?mcid=42383&pid=P00281144&medium=api&api_version=2.0",
          "center": {
            "latitude": 47.010787,
            "longitude": 28.873443
          },
          "children": []
        }
      ]
    },
    {
      "id": 21916,
      "name": "Eswatini (Swaziland)",
      "type": "COUNTRY",
      "parentId": 1,
      "lookupId": "1.21916",
      "url": "https://www.viator.com/x/d21916-ttd?mcid=42383&pid=P00281144&medium=api&api_version=2.0",
      "center": {
        "latitude": -26.5225,
        "longitude": 31.4659
      },
      "children": [
        {
          "id": 50961,
          "name": "Mbabane",
          "type": "TOWN",
          "parentId": 21916,
          "lookupId": "1.21916.50961",
          "url": "https://www.viator.com/x/d50961-ttd?mcid=42383&pid=P00281144&medium=api&api_version=2.0",
          "center": {
            "latitude": -26.325631,
            "longitude": 31.1445
          },
          "children": []
        }
      ]
    },
    {
      "id": 21906,
      "name": "Malawi",
      "type": "COUNTRY",
      "parentId": 1,
      "lookupId": "1.21906",
      "url": "https://www.viator.com/x/d21906-ttd?mcid=42383&pid=P00281144&medium=api&api_version=2.0",
      "center": {
        "latitude": -13.2543,
        "longitude": 34.3015
      },
      "children": [
        {
          "id": 25512,
          "name": "Lilongwe",
          "type": "CITY",
          "parentId": 21906,
          "lookupId": "1.21906.25512",
          "url": "https://www.viator.com/x/d25512-ttd?mcid=42383&pid=P00281144&medium=api&api_version=2.0",
          "center": {
            "latitude": -13.9833,
            "longitude": 33.7833
          },
          "children": []
        }
      ]
    },
    {
      "id": 21888,
      "name": "Congo",
      "type": "COUNTRY",
      "parentId": 1,
      "lookupId": "1.21888",
      "url": "https://www.viator.com/x/d21888-ttd?mcid=42383&pid=P00281144&medium=api&api_version=2.0",
      "center": {
        "latitude": -0.228,
        "longitude": 15.8277
      },
      "children": []
    },
    {
      "id": 21899,
      "name": "Gabon",
      "type": "COUNTRY",
      "parentId": 1,
      "lookupId": "1.21899",
      "url": "https://www.viator.com/x/d21899-ttd?mcid=42383&pid=P00281144&medium=api&api_version=2.0",
      "center": {
        "latitude": -0.8037,
        "longitude": 11.6094
      },
      "children": [
        {
          "id": 51613,
          "name": "Libreville",
          "type": "CITY",
          "parentId": 21899,
          "lookupId": "1.21899.51613",
          "url": "https://www.viator.com/x/d51613-ttd?mcid=42383&pid=P00281144&medium=api&api_version=2.0",
          "center": {
            "latitude": 0.394217,
            "longitude": 9.449357
          },
          "children": []
        }
      ]
    },
    {
      "id": 4425,
      "name": "Togo",
      "type": "COUNTRY",
      "parentId": 1,
      "lookupId": "1.4425",
      "url": "https://www.viator.com/x/d4425-ttd?mcid=42383&pid=P00281144&medium=api&api_version=2.0",
      "center": {
        "latitude": 8.6195,
        "longitude": 0.8248
      },
      "children": [
        {
          "id": 4426,
          "name": "Lome",
          "type": "CITY",
          "parentId": 4425,
          "lookupId": "1.4425.4426",
          "url": "https://www.viator.com/x/d4426-ttd?mcid=42383&pid=P00281144&medium=api&api_version=2.0",
          "center": {
            "latitude": 6.172234,
            "longitude": 1.230797
          },
          "children": []
        }
      ]
    },
    {
      "id": 4444,
      "name": "Benin",
      "type": "COUNTRY",
      "parentId": 1,
      "lookupId": "1.4444",
      "url": "https://www.viator.com/x/d4444-ttd?mcid=42383&pid=P00281144&medium=api&api_version=2.0",
      "center": {
        "latitude": 9.3077,
        "longitude": 2.3158
      },
      "children": [
        {
          "id": 4446,
          "name": "Cotonou",
          "type": "CITY",
          "parentId": 4444,
          "lookupId": "1.4444.4446",
          "url": "https://www.viator.com/x/d4446-ttd?mcid=42383&pid=P00281144&medium=api&api_version=2.0",
          "center": {
            "latitude": 6.4,
            "longitude": 2.52
          },
          "children": []
        }
      ]
    },
    {
      "id": 21471,
      "name": "Angola",
      "type": "COUNTRY",
      "parentId": 1,
      "lookupId": "1.21471",
      "url": "https://www.viator.com/x/d21471-ttd?mcid=42383&pid=P00281144&medium=api&api_version=2.0",
      "center": {
        "latitude": -11.2027,
        "longitude": 17.8739
      },
      "children": [
        {
          "id": 34194,
          "name": "Luanda",
          "type": "CITY",
          "parentId": 21471,
          "lookupId": "1.21471.34194",
          "url": "https://www.viator.com/x/d34194-ttd?mcid=42383&pid=P00281144&medium=api&api_version=2.0",
          "center": {
            "latitude": -8.839258,
            "longitude": 13.294393
          },
          "children": []
        }
      ]
    },
    {
      "id": 27539,
      "name": "East Timor",
      "type": "COUNTRY",
      "parentId": 3,
      "lookupId": "3.27539",
      "url": "https://www.viator.com/x/d27539-ttd?mcid=42383&pid=P00281144&medium=api&api_version=2.0",
      "center": {
        "latitude": -8.87422,
        "longitude": 125.72754
      },
      "children": []
    },
    {
      "id": 21806,
      "name": "Burundi",
      "type": "COUNTRY",
      "parentId": 1,
      "lookupId": "1.21806",
      "url": "https://www.viator.com/x/d21806-ttd?mcid=42383&pid=P00281144&medium=api&api_version=2.0",
      "center": {
        "latitude": -3.3731,
        "longitude": 29.9189
      },
      "children": [
        {
          "id": 25796,
          "name": "Bujumbura",
          "type": "CITY",
          "parentId": 21806,
          "lookupId": "1.21806.25796",
          "url": "https://www.viator.com/x/d25796-ttd?mcid=42383&pid=P00281144&medium=api&api_version=2.0",
          "center": {
            "latitude": -3.361932,
            "longitude": 29.360271
          },
          "children": []
        }
      ]
    },
    {
      "id": 21805,
      "name": "Burkina Faso",
      "type": "COUNTRY",
      "parentId": 1,
      "lookupId": "1.21805",
      "url": "https://www.viator.com/x/d21805-ttd?mcid=42383&pid=P00281144&medium=api&api_version=2.0",
      "center": {
        "latitude": 12.2383,
        "longitude": -1.5616
      },
      "children": []
    },
    {
      "id": 21801,
      "name": "Algeria",
      "type": "COUNTRY",
      "parentId": 1,
      "lookupId": "1.21801",
      "url": "https://www.viator.com/x/d21801-ttd?mcid=42383&pid=P00281144&medium=api&api_version=2.0",
      "center": {
        "latitude": 29.431548,
        "longitude": 2.127873
      },
      "children": [
        {
          "id": 25745,
          "name": "Algiers",
          "type": "CITY",
          "parentId": 21801,
          "lookupId": "1.21801.25745",
          "url": "https://www.viator.com/x/d25745-ttd?mcid=42383&pid=P00281144&medium=api&api_version=2.0",
          "center": {
            "latitude": 36.7631,
            "longitude": 3.0506
          },
          "children": []
        },
        {
          "id": 51832,
          "name": "Djanet",
          "type": "CITY",
          "parentId": 21801,
          "lookupId": "1.21801.51832",
          "url": "https://www.viator.com/x/d51832-ttd?mcid=42383&pid=P00281144&medium=api&api_version=2.0",
          "center": {
            "latitude": 24.552906,
            "longitude": 9.482253
          },
          "children": []
        },
        {
          "id": 51801,
          "name": "Ghardaia",
          "type": "CITY",
          "parentId": 21801,
          "lookupId": "1.21801.51801",
          "url": "https://www.viator.com/x/d51801-ttd?mcid=42383&pid=P00281144&medium=api&api_version=2.0",
          "center": {
            "latitude": 32.489992,
            "longitude": 3.669998
          },
          "children": []
        }
      ]
    },
    {
      "id": 4917,
      "name": "Kuwait",
      "type": "COUNTRY",
      "parentId": 1,
      "lookupId": "1.4917",
      "url": "https://www.viator.com/x/d4917-ttd?mcid=42383&pid=P00281144&medium=api&api_version=2.0",
      "center": {
        "latitude": 29.3117,
        "longitude": 47.4818
      },
      "children": [
        {
          "id": 4918,
          "name": "Kuwait City",
          "type": "CITY",
          "parentId": 4917,
          "lookupId": "1.4917.4918",
          "url": "https://www.viator.com/x/d4918-ttd?mcid=42383&pid=P00281144&medium=api&api_version=2.0",
          "center": {
            "latitude": 29.376961,
            "longitude": 47.982443
          },
          "children": []
        }
      ]
    },
    {
      "id": 21770,
      "name": "Kazakhstan",
      "type": "COUNTRY",
      "parentId": 2,
      "lookupId": "2.21770",
      "url": "https://www.viator.com/x/d21770-ttd?mcid=42383&pid=P00281144&medium=api&api_version=2.0",
      "center": {
        "latitude": 46.5940518,
        "longitude": 49.0384383
      },
      "children": [
        {
          "id": 32977,
          "name": "Almaty",
          "type": "CITY",
          "parentId": 21770,
          "lookupId": "2.21770.32977",
          "url": "https://www.viator.com/x/d32977-ttd?mcid=42383&pid=P00281144&medium=api&api_version=2.0",
          "center": {
            "latitude": 43.224137,
            "longitude": 76.851951
          },
          "children": []
        },
        {
          "id": 50520,
          "name": "Nur-Sultan",
          "type": "CITY",
          "parentId": 21770,
          "lookupId": "2.21770.50520",
          "url": "https://www.viator.com/x/d50520-ttd?mcid=42383&pid=P00281144&medium=api&api_version=2.0",
          "center": {
            "latitude": 51.177601,
            "longitude": 71.432999
          },
          "children": []
        },
        {
          "id": 51582,
          "name": "Shymkent",
          "type": "CITY",
          "parentId": 21770,
          "lookupId": "2.21770.51582",
          "url": "https://www.viator.com/x/d51582-ttd?mcid=42383&pid=P00281144&medium=api&api_version=2.0",
          "center": {
            "latitude": 42.339282,
            "longitude": 69.574815
          },
          "children": []
        }
      ]
    },
    {
      "id": 4782,
      "name": "Papua New Guinea",
      "type": "COUNTRY",
      "parentId": 3,
      "lookupId": "3.4782",
      "url": "https://www.viator.com/x/d4782-ttd?mcid=42383&pid=P00281144&medium=api&api_version=2.0",
      "center": {
        "latitude": -6.2975756,
        "longitude": 141.3548333
      },
      "children": [
        {
          "id": 50345,
          "name": "Port Moresby",
          "type": "CITY",
          "parentId": 4782,
          "lookupId": "3.4782.50345",
          "url": "https://www.viator.com/x/d50345-ttd?mcid=42383&pid=P00281144&medium=api&api_version=2.0",
          "center": {
            "latitude": -9.4438,
            "longitude": 147.1803
          },
          "children": []
        }
      ]
    },
    {
      "id": 4774,
      "name": "Guam",
      "type": "COUNTRY",
      "parentId": 3,
      "lookupId": "3.4774",
      "url": "https://www.viator.com/x/d4774-ttd?mcid=42383&pid=P00281144&medium=api&api_version=2.0",
      "center": {
        "latitude": 13.4506574,
        "longitude": 144.508623
      },
      "children": [
        {
          "id": 50255,
          "name": "Tumon",
          "type": "CITY",
          "parentId": 4774,
          "lookupId": "3.4774.50255",
          "url": "https://www.viator.com/x/d50255-ttd?mcid=42383&pid=P00281144&medium=api&api_version=2.0",
          "center": {
            "latitude": 13.5005,
            "longitude": 144.7956
          },
          "children": []
        }
      ]
    },
    {
      "id": 22232,
      "name": "Gambia",
      "type": "COUNTRY",
      "parentId": 1,
      "lookupId": "1.22232",
      "url": "https://www.viator.com/x/d22232-ttd?mcid=42383&pid=P00281144&medium=api&api_version=2.0",
      "center": {
        "latitude": 13.4432,
        "longitude": -15.3101
      },
      "children": [
        {
          "id": 27409,
          "name": "Banjul",
          "type": "CITY",
          "parentId": 22232,
          "lookupId": "1.22232.27409",
          "url": "https://www.viator.com/x/d27409-ttd?mcid=42383&pid=P00281144&medium=api&api_version=2.0",
          "center": {
            "latitude": 13.45488,
            "longitude": -16.57903
          },
          "children": []
        }
      ]
    },
    {
      "id": 22154,
      "name": "Saudi Arabia",
      "type": "COUNTRY",
      "parentId": 1,
      "lookupId": "1.22154",
      "url": "https://www.viator.com/x/d22154-ttd?mcid=42383&pid=P00281144&medium=api&api_version=2.0",
      "center": {
        "latitude": 23.8859,
        "longitude": 45.0792
      },
      "children": [
        {
          "id": 51269,
          "name": "AlUla",
          "type": "CITY",
          "parentId": 22154,
          "lookupId": "1.22154.51269",
          "url": "https://www.viator.com/x/d51269-ttd?mcid=42383&pid=P00281144&medium=api&api_version=2.0",
          "center": {
            "latitude": 26.523779,
            "longitude": 37.926924
          },
          "children": []
        },
        {
          "id": 50462,
          "name": "Jeddah",
          "type": "CITY",
          "parentId": 22154,
          "lookupId": "1.22154.50462",
          "url": "https://www.viator.com/x/d50462-ttd?mcid=42383&pid=P00281144&medium=api&api_version=2.0",
          "center": {
            "latitude": 21.485811,
            "longitude": 39.192505
          },
          "children": []
        },
        {
          "id": 50350,
          "name": "Medina",
          "type": "CITY",
          "parentId": 22154,
          "lookupId": "1.22154.50350",
          "url": "https://www.viator.com/x/d50350-ttd?mcid=42383&pid=P00281144&medium=api&api_version=2.0",
          "center": {
            "latitude": 24.5247,
            "longitude": 39.5692
          },
          "children": []
        },
        {
          "id": 50285,
          "name": "Riyadh",
          "type": "CITY",
          "parentId": 22154,
          "lookupId": "1.22154.50285",
          "url": "https://www.viator.com/x/d50285-ttd?mcid=42383&pid=P00281144&medium=api&api_version=2.0",
          "center": {
            "latitude": 24.7136,
            "longitude": 46.6753
          },
          "children": []
        },
        {
          "id": 51790,
          "name": "Tabouk",
          "type": "CITY",
          "parentId": 22154,
          "lookupId": "1.22154.51790",
          "url": "https://www.viator.com/x/d51790-ttd?mcid=42383&pid=P00281144&medium=api&api_version=2.0",
          "center": {
            "latitude": 12.0935,
            "longitude": -12.8759
          },
          "children": []
        },
        {
          "id": 51555,
          "name": "Taif",
          "type": "CITY",
          "parentId": 22154,
          "lookupId": "1.22154.51555",
          "url": "https://www.viator.com/x/d51555-ttd?mcid=42383&pid=P00281144&medium=api&api_version=2.0",
          "center": {
            "latitude": 21.262184,
            "longitude": 40.42631
          },
          "children": []
        }
      ]
    },
    {
      "id": 22157,
      "name": "Mauritania",
      "type": "COUNTRY",
      "parentId": 1,
      "lookupId": "1.22157",
      "url": "https://www.viator.com/x/d22157-ttd?mcid=42383&pid=P00281144&medium=api&api_version=2.0",
      "center": {
        "latitude": 21.0079,
        "longitude": -10.9408
      },
      "children": []
    },
    {
      "id": 22159,
      "name": "Chad",
      "type": "COUNTRY",
      "parentId": 1,
      "lookupId": "1.22159",
      "url": "https://www.viator.com/x/d22159-ttd?mcid=42383&pid=P00281144&medium=api&api_version=2.0",
      "center": {
        "latitude": 15.263302,
        "longitude": 9.6964172
      },
      "children": [
        {
          "id": 36393,
          "name": "N'Djamena",
          "type": "CITY",
          "parentId": 22159,
          "lookupId": "1.22159.36393",
          "url": "https://www.viator.com/x/d36393-ttd?mcid=42383&pid=P00281144&medium=api&api_version=2.0",
          "center": {
            "latitude": 12.1201831,
            "longitude": 14.9173724
          },
          "children": []
        }
      ]
    },
    {
      "id": 22165,
      "name": "Suriname",
      "type": "COUNTRY",
      "parentId": 9,
      "lookupId": "9.22165",
      "url": "https://www.viator.com/x/d22165-ttd?mcid=42383&pid=P00281144&medium=api&api_version=2.0",
      "center": {
        "latitude": 3.9193,
        "longitude": -56.0278
      },
      "children": [
        {
          "id": 26849,
          "name": "Paramaribo",
          "type": "CITY",
          "parentId": 22165,
          "lookupId": "9.22165.26849",
          "url": "https://www.viator.com/x/d26849-ttd?mcid=42383&pid=P00281144&medium=api&api_version=2.0",
          "center": {
            "latitude": 5.85204,
            "longitude": -55.20383
          },
          "children": []
        }
      ]
    },
    {
      "id": 22163,
      "name": "Palau",
      "type": "COUNTRY",
      "parentId": 3,
      "lookupId": "3.22163",
      "url": "https://www.viator.com/x/d22163-ttd?mcid=42383&pid=P00281144&medium=api&api_version=2.0",
      "center": {
        "latitude": 7.515,
        "longitude": 134.5825
      },
      "children": [
        {
          "id": 25560,
          "name": "Koror",
          "type": "REGION",
          "parentId": 22163,
          "lookupId": "3.22163.25560",
          "url": "https://www.viator.com/x/d25560-ttd?mcid=42383&pid=P00281144&medium=api&api_version=2.0",
          "center": {
            "latitude": 7.3643,
            "longitude": 134.5329
          },
          "children": []
        }
      ]
    },
    {
      "id": 22164,
      "name": "Montserrat",
      "type": "COUNTRY",
      "parentId": 4,
      "lookupId": "4.22164",
      "url": "https://www.viator.com/x/d22164-ttd?mcid=42383&pid=P00281144&medium=api&api_version=2.0",
      "center": {
        "latitude": 16.7425,
        "longitude": -62.1874
      },
      "children": []
    },
    {
      "id": 21940,
      "name": "Paraguay",
      "type": "COUNTRY",
      "parentId": 9,
      "lookupId": "9.21940",
      "url": "https://www.viator.com/x/d21940-ttd?mcid=42383&pid=P00281144&medium=api&api_version=2.0",
      "center": {
        "latitude": -23.4425,
        "longitude": -58.4438
      },
      "children": [
        {
          "id": 22635,
          "name": "Asunción",
          "type": "CITY",
          "parentId": 21940,
          "lookupId": "9.21940.22635",
          "url": "https://www.viator.com/x/d22635-ttd?mcid=42383&pid=P00281144&medium=api&api_version=2.0",
          "center": {
            "latitude": -25.263541,
            "longitude": -57.573459
          },
          "children": []
        }
      ]
    },
    {
      "id": 21938,
      "name": "Tajikistan",
      "type": "COUNTRY",
      "parentId": 2,
      "lookupId": "2.21938",
      "url": "https://www.viator.com/x/d21938-ttd?mcid=42383&pid=P00281144&medium=api&api_version=2.0",
      "center": {
        "latitude": 38.861,
        "longitude": 71.2761
      },
      "children": [
        {
          "id": 50471,
          "name": "Dushanbe",
          "type": "CITY",
          "parentId": 21938,
          "lookupId": "2.21938.50471",
          "url": "https://www.viator.com/x/d50471-ttd?mcid=42383&pid=P00281144&medium=api&api_version=2.0",
          "center": {
            "latitude": 38.557671,
            "longitude": 68.775917
          },
          "children": []
        },
        {
          "id": 51709,
          "name": "Khorog",
          "type": "CITY",
          "parentId": 21938,
          "lookupId": "2.21938.51709",
          "url": "https://www.viator.com/x/d51709-ttd?mcid=42383&pid=P00281144&medium=api&api_version=2.0",
          "center": {
            "latitude": 37.48974,
            "longitude": 71.55304
          },
          "children": []
        }
      ]
    },
    {
      "id": 21935,
      "name": "Comoros",
      "type": "COUNTRY",
      "parentId": 1,
      "lookupId": "1.21935",
      "url": "https://www.viator.com/x/d21935-ttd?mcid=42383&pid=P00281144&medium=api&api_version=2.0",
      "center": {
        "latitude": 11.6455,
        "longitude": 43.3333
      },
      "children": []
    },
    {
      "id": 21933,
      "name": "Democratic Republic of Congo",
      "type": "COUNTRY",
      "parentId": 1,
      "lookupId": "1.21933",
      "url": "https://www.viator.com/x/d21933-ttd?mcid=42383&pid=P00281144&medium=api&api_version=2.0",
      "center": {
        "latitude": -4.0383,
        "longitude": 21.7587
      },
      "children": [
        {
          "id": 51605,
          "name": "Goma",
          "type": "CITY",
          "parentId": 21933,
          "lookupId": "1.21933.51605",
          "url": "https://www.viator.com/x/d51605-ttd?mcid=42383&pid=P00281144&medium=api&api_version=2.0",
          "center": {
            "latitude": -1.67409,
            "longitude": 29.22845
          },
          "children": []
        },
        {
          "id": 34417,
          "name": "Kinshasa",
          "type": "CITY",
          "parentId": 21933,
          "lookupId": "1.21933.34417",
          "url": "https://www.viator.com/x/d34417-ttd?mcid=42383&pid=P00281144&medium=api&api_version=2.0",
          "center": {
            "latitude": -4.443117,
            "longitude": 15.262688
          },
          "children": []
        },
        {
          "id": 51760,
          "name": "Lubumbashi",
          "type": "CITY",
          "parentId": 21933,
          "lookupId": "1.21933.51760",
          "url": "https://www.viator.com/x/d51760-ttd?mcid=42383&pid=P00281144&medium=api&api_version=2.0",
          "center": {
            "latitude": -11.664276,
            "longitude": 27.466925
          },
          "children": []
        }
      ]
    },
    {
      "id": 21904,
      "name": "Liberia",
      "type": "COUNTRY",
      "parentId": 1,
      "lookupId": "1.21904",
      "url": "https://www.viator.com/x/d21904-ttd?mcid=42383&pid=P00281144&medium=api&api_version=2.0",
      "center": {
        "latitude": 6.4059652,
        "longitude": -11.697002
      },
      "children": []
    },
    {
      "id": 21903,
      "name": "Lesotho",
      "type": "COUNTRY",
      "parentId": 1,
      "lookupId": "1.21903",
      "url": "https://www.viator.com/x/d21903-ttd?mcid=42383&pid=P00281144&medium=api&api_version=2.0",
      "center": {
        "latitude": -29.61,
        "longitude": 28.2336
      },
      "children": []
    },
    {
      "id": 21911,
      "name": "San Marino",
      "type": "COUNTRY",
      "parentId": 6,
      "lookupId": "6.21911",
      "url": "https://www.viator.com/x/d21911-ttd?mcid=42383&pid=P00281144&medium=api&api_version=2.0",
      "center": {
        "latitude": 43.9424,
        "longitude": 12.4578
      },
      "children": []
    },
    {
      "id": 21907,
      "name": "Niger",
      "type": "COUNTRY",
      "parentId": 1,
      "lookupId": "1.21907",
      "url": "https://www.viator.com/x/d21907-ttd?mcid=42383&pid=P00281144&medium=api&api_version=2.0",
      "center": {
        "latitude": 17.6078,
        "longitude": 8.0817
      },
      "children": []
    },
    {
      "id": 4830,
      "name": "Mozambique",
      "type": "COUNTRY",
      "parentId": 1,
      "lookupId": "1.4830",
      "url": "https://www.viator.com/x/d4830-ttd?mcid=42383&pid=P00281144&medium=api&api_version=2.0",
      "center": {
        "latitude": -18.6657,
        "longitude": 35.5296
      },
      "children": [
        {
          "id": 30759,
          "name": "Maputo",
          "type": "CITY",
          "parentId": 4830,
          "lookupId": "1.4830.30759",
          "url": "https://www.viator.com/x/d30759-ttd?mcid=42383&pid=P00281144&medium=api&api_version=2.0",
          "center": {
            "latitude": -25.89197,
            "longitude": 32.60514
          },
          "children": []
        }
      ]
    },
    {
      "id": 32314,
      "name": "Channel Islands",
      "type": "COUNTRY",
      "parentId": 6,
      "lookupId": "6.32314",
      "url": "https://www.viator.com/x/d32314-ttd?mcid=42383&pid=P00281144&medium=api&api_version=2.0",
      "center": {
        "latitude": 49.418491,
        "longitude": -2.333276
      },
      "children": [
        {
          "id": 4329,
          "name": "Guernsey",
          "type": "CITY",
          "parentId": 32314,
          "lookupId": "6.32314.4329",
          "url": "https://www.viator.com/x/d4329-ttd?mcid=42383&pid=P00281144&medium=api&api_version=2.0",
          "center": {
            "latitude": 49.45,
            "longitude": -2.58
          },
          "children": []
        }
      ]
    },
    {
      "id": 4616,
      "name": "Brunei",
      "type": "COUNTRY",
      "parentId": 2,
      "lookupId": "2.4616",
      "url": "https://www.viator.com/x/d4616-ttd?mcid=42383&pid=P00281144&medium=api&api_version=2.0",
      "center": {
        "latitude": 4.5353,
        "longitude": 114.7277
      },
      "children": [
        {
          "id": 4617,
          "name": "Bandar Seri Begawan",
          "type": "CITY",
          "parentId": 4616,
          "lookupId": "2.4616.4617",
          "url": "https://www.viator.com/x/d4617-ttd?mcid=42383&pid=P00281144&medium=api&api_version=2.0",
          "center": {
            "latitude": 4.904955,
            "longitude": 114.936971
          },
          "children": []
        },
        {
          "id": 50576,
          "name": "Kampong Jerudong",
          "type": "CITY",
          "parentId": 4616,
          "lookupId": "2.4616.50576",
          "url": "https://www.viator.com/x/d50576-ttd?mcid=42383&pid=P00281144&medium=api&api_version=2.0",
          "center": {
            "latitude": 4.92822,
            "longitude": 114.82331
          },
          "children": []
        }
      ]
    },
    {
      "id": 21885,
      "name": "Cameroon",
      "type": "COUNTRY",
      "parentId": 1,
      "lookupId": "1.21885",
      "url": "https://www.viator.com/x/d21885-ttd?mcid=42383&pid=P00281144&medium=api&api_version=2.0",
      "center": {
        "latitude": 7.3697,
        "longitude": 12.3547
      },
      "children": [
        {
          "id": 51626,
          "name": "Douala",
          "type": "CITY",
          "parentId": 21885,
          "lookupId": "1.21885.51626",
          "url": "https://www.viator.com/x/d51626-ttd?mcid=42383&pid=P00281144&medium=api&api_version=2.0",
          "center": {
            "latitude": 4.04827,
            "longitude": 9.70428
          },
          "children": []
        },
        {
          "id": 36694,
          "name": "Yaounde",
          "type": "CITY",
          "parentId": 21885,
          "lookupId": "1.21885.36694",
          "url": "https://www.viator.com/x/d36694-ttd?mcid=42383&pid=P00281144&medium=api&api_version=2.0",
          "center": {
            "latitude": 3.8303023,
            "longitude": 11.440413
          },
          "children": []
        }
      ]
    },
    {
      "id": 4868,
      "name": "Seychelles",
      "type": "COUNTRY",
      "parentId": 1,
      "lookupId": "1.4868",
      "url": "https://www.viator.com/x/d4868-ttd?mcid=42383&pid=P00281144&medium=api&api_version=2.0",
      "center": {
        "latitude": 4.6796,
        "longitude": 55.492
      },
      "children": [
        {
          "id": 50354,
          "name": "Anse Volbert",
          "type": "CITY",
          "parentId": 4868,
          "lookupId": "1.4868.50354",
          "url": "https://www.viator.com/x/d50354-ttd?mcid=42383&pid=P00281144&medium=api&api_version=2.0",
          "center": {
            "latitude": -4.3169,
            "longitude": 55.7477
          },
          "children": []
        },
        {
          "id": 50356,
          "name": "La Digue Island",
          "type": "CITY",
          "parentId": 4868,
          "lookupId": "1.4868.50356",
          "url": "https://www.viator.com/x/d50356-ttd?mcid=42383&pid=P00281144&medium=api&api_version=2.0",
          "center": {
            "latitude": -4.3591,
            "longitude": 55.8412
          },
          "children": []
        },
        {
          "id": 23302,
          "name": "Mahé",
          "type": "REGION",
          "parentId": 4868,
          "lookupId": "1.4868.23302",
          "url": "https://www.viator.com/x/d23302-ttd?mcid=42383&pid=P00281144&medium=api&api_version=2.0",
          "center": {
            "latitude": 55.4334,
            "longitude": -4.7078
          },
          "children": [
            {
              "id": 50351,
              "name": "Beau Vallon",
              "type": "CITY",
              "parentId": 23302,
              "lookupId": "1.4868.23302.50351",
              "url": "https://www.viator.com/x/d50351-ttd?mcid=42383&pid=P00281144&medium=api&api_version=2.0",
              "center": {
                "latitude": -4.6211,
                "longitude": 55.4278
              },
              "children": []
            },
            {
              "id": 51783,
              "name": "Eden Island",
              "type": "ISLAND",
              "parentId": 23302,
              "lookupId": "1.4868.23302.51783",
              "url": "https://www.viator.com/x/d51783-ttd?mcid=42383&pid=P00281144&medium=api&api_version=2.0",
              "center": {
                "latitude": 33.823535,
                "longitude": -7.132142
              },
              "children": []
            },
            {
              "id": 23304,
              "name": "Victoria",
              "type": "CITY",
              "parentId": 23302,
              "lookupId": "1.4868.23302.23304",
              "url": "https://www.viator.com/x/d23304-ttd?mcid=42383&pid=P00281144&medium=api&api_version=2.0",
              "center": {
                "latitude": -4.619357,
                "longitude": 55.451737
              },
              "children": []
            }
          ]
        },
        {
          "id": 50352,
          "name": "Praslin Island",
          "type": "CITY",
          "parentId": 4868,
          "lookupId": "1.4868.50352",
          "url": "https://www.viator.com/x/d50352-ttd?mcid=42383&pid=P00281144&medium=api&api_version=2.0",
          "center": {
            "latitude": -4.3326,
            "longitude": 55.7467
          },
          "children": []
        }
      ]
    },
    {
      "id": 21890,
      "name": "Equatorial Guinea",
      "type": "COUNTRY",
      "parentId": 1,
      "lookupId": "1.21890",
      "url": "https://www.viator.com/x/d21890-ttd?mcid=42383&pid=P00281144&medium=api&api_version=2.0",
      "center": {
        "latitude": 1.6508,
        "longitude": 10.2679
      },
      "children": []
    },
    {
      "id": 4461,
      "name": "Cape Verde",
      "type": "COUNTRY",
      "parentId": 1,
      "lookupId": "1.4461",
      "url": "https://www.viator.com/x/d4461-ttd?mcid=42383&pid=P00281144&medium=api&api_version=2.0",
      "center": {
        "latitude": 16.5388,
        "longitude": 23.0418
      },
      "children": [
        {
          "id": 28617,
          "name": "Boa Vista",
          "type": "REGION",
          "parentId": 4461,
          "lookupId": "1.4461.28617",
          "url": "https://www.viator.com/x/d28617-ttd?mcid=42383&pid=P00281144&medium=api&api_version=2.0",
          "center": {
            "latitude": 16.13725,
            "longitude": -22.85822
          },
          "children": [
            {
              "id": 50850,
              "name": "Rabil",
              "type": "CITY",
              "parentId": 28617,
              "lookupId": "1.4461.28617.50850",
              "url": "https://www.viator.com/x/d50850-ttd?mcid=42383&pid=P00281144&medium=api&api_version=2.0",
              "center": {
                "latitude": 16.1326525249,
                "longitude": -22.8847789149
              },
              "children": []
            },
            {
              "id": 50851,
              "name": "Sal Rei",
              "type": "CITY",
              "parentId": 28617,
              "lookupId": "1.4461.28617.50851",
              "url": "https://www.viator.com/x/d50851-ttd?mcid=42383&pid=P00281144&medium=api&api_version=2.0",
              "center": {
                "latitude": 16.1845485135,
                "longitude": -22.9149645908
              },
              "children": []
            }
          ]
        },
        {
          "id": 51447,
          "name": "Brava",
          "type": "CITY",
          "parentId": 4461,
          "lookupId": "1.4461.51447",
          "url": "https://www.viator.com/x/d51447-ttd?mcid=42383&pid=P00281144&medium=api&api_version=2.0",
          "center": {
            "latitude": 14.849691,
            "longitude": -24.71699
          },
          "children": [
            {
              "id": 52167,
              "name": "Nova Sintra",
              "type": "CITY",
              "parentId": 51447,
              "lookupId": "1.4461.51447.52167",
              "url": "https://www.viator.com/x/d52167-ttd?mcid=42383&pid=P00281144&medium=api&api_version=2.0",
              "center": {
                "latitude": 14.86667,
                "longitude": -24.71667
              },
              "children": []
            }
          ]
        },
        {
          "id": 51449,
          "name": "Ilha do Fogo",
          "type": "CITY",
          "parentId": 4461,
          "lookupId": "1.4461.51449",
          "url": "https://www.viator.com/x/d51449-ttd?mcid=42383&pid=P00281144&medium=api&api_version=2.0",
          "center": {
            "latitude": 15.21429,
            "longitude": -23.16021
          },
          "children": [
            {
              "id": 52165,
              "name": "Sao Filipe",
              "type": "CITY",
              "parentId": 51449,
              "lookupId": "1.4461.51449.52165",
              "url": "https://www.viator.com/x/d52165-ttd?mcid=42383&pid=P00281144&medium=api&api_version=2.0",
              "center": {
                "latitude": 14.8961,
                "longitude": -24.49556
              },
              "children": []
            }
          ]
        },
        {
          "id": 50310,
          "name": "Mindelo",
          "type": "CITY",
          "parentId": 4461,
          "lookupId": "1.4461.50310",
          "url": "https://www.viator.com/x/d50310-ttd?mcid=42383&pid=P00281144&medium=api&api_version=2.0",
          "center": {
            "latitude": 16.8765,
            "longitude": -24.9813
          },
          "children": []
        },
        {
          "id": 50225,
          "name": "Praia",
          "type": "CITY",
          "parentId": 4461,
          "lookupId": "1.4461.50225",
          "url": "https://www.viator.com/x/d50225-ttd?mcid=42383&pid=P00281144&medium=api&api_version=2.0",
          "center": {
            "latitude": 14.933,
            "longitude": -23.5133
          },
          "children": []
        },
        {
          "id": 28618,
          "name": "Sal",
          "type": "REGION",
          "parentId": 4461,
          "lookupId": "1.4461.28618",
          "url": "https://www.viator.com/x/d28618-ttd?mcid=42383&pid=P00281144&medium=api&api_version=2.0",
          "center": {
            "latitude": 16.72662,
            "longitude": -22.92971
          },
          "children": [
            {
              "id": 50200,
              "name": "Santa Maria",
              "type": "CITY",
              "parentId": 28618,
              "lookupId": "1.4461.28618.50200",
              "url": "https://www.viator.com/x/d50200-ttd?mcid=42383&pid=P00281144&medium=api&api_version=2.0",
              "center": {
                "latitude": 16.600019,
                "longitude": -22.905769
              },
              "children": []
            }
          ]
        },
        {
          "id": 50852,
          "name": "Santiago",
          "type": "REGION",
          "parentId": 4461,
          "lookupId": "1.4461.50852",
          "url": "https://www.viator.com/x/d50852-ttd?mcid=42383&pid=P00281144&medium=api&api_version=2.0",
          "center": {
            "latitude": 15.1002186276,
            "longitude": -23.6196009703
          },
          "children": [
            {
              "id": 51437,
              "name": "Assomada",
              "type": "CITY",
              "parentId": 50852,
              "lookupId": "1.4461.50852.51437",
              "url": "https://www.viator.com/x/d51437-ttd?mcid=42383&pid=P00281144&medium=api&api_version=2.0",
              "center": {
                "latitude": 15.096,
                "longitude": -23.667
              },
              "children": []
            },
            {
              "id": 50853,
              "name": "Pedra Badejo",
              "type": "CITY",
              "parentId": 50852,
              "lookupId": "1.4461.50852.50853",
              "url": "https://www.viator.com/x/d50853-ttd?mcid=42383&pid=P00281144&medium=api&api_version=2.0",
              "center": {
                "latitude": 15.1363442406,
                "longitude": -23.5342704831
              },
              "children": []
            },
            {
              "id": 51430,
              "name": "Tarrafal",
              "type": "CITY",
              "parentId": 50852,
              "lookupId": "1.4461.50852.51430",
              "url": "https://www.viator.com/x/d51430-ttd?mcid=42383&pid=P00281144&medium=api&api_version=2.0",
              "center": {
                "latitude": 15.278,
                "longitude": -23.752
              },
              "children": []
            }
          ]
        },
        {
          "id": 50854,
          "name": "Santo Antao",
          "type": "REGION",
          "parentId": 4461,
          "lookupId": "1.4461.50854",
          "url": "https://www.viator.com/x/d50854-ttd?mcid=42383&pid=P00281144&medium=api&api_version=2.0",
          "center": {
            "latitude": 17.1134878667,
            "longitude": -25.1429391569
          },
          "children": []
        },
        {
          "id": 50392,
          "name": "Sao Vicente",
          "type": "CITY",
          "parentId": 4461,
          "lookupId": "1.4461.50392",
          "url": "https://www.viator.com/x/d50392-ttd?mcid=42383&pid=P00281144&medium=api&api_version=2.0",
          "center": {
            "latitude": 16.828,
            "longitude": -24.9754
          },
          "children": []
        }
      ]
    },
    {
      "id": 4214,
      "name": "Lebanon",
      "type": "COUNTRY",
      "parentId": 1,
      "lookupId": "1.4214",
      "url": "https://www.viator.com/x/d4214-ttd?mcid=42383&pid=P00281144&medium=api&api_version=2.0",
      "center": {
        "latitude": 33.9593082104,
        "longitude": 35.7357788086
      },
      "children": [
        {
          "id": 4215,
          "name": "Beirut",
          "type": "CITY",
          "parentId": 4214,
          "lookupId": "1.4214.4215",
          "url": "https://www.viator.com/x/d4215-ttd?mcid=42383&pid=P00281144&medium=api&api_version=2.0",
          "center": {
            "latitude": 33.8925049145,
            "longitude": 35.4976844788
          },
          "children": []
        }
      ]
    },
    {
      "id": 4458,
      "name": "Bahrain",
      "type": "COUNTRY",
      "parentId": 1,
      "lookupId": "1.4458",
      "url": "https://www.viator.com/x/d4458-ttd?mcid=42383&pid=P00281144&medium=api&api_version=2.0",
      "center": {
        "latitude": 25.9304,
        "longitude": 50.6378
      },
      "children": [
        {
          "id": 31482,
          "name": "Manama",
          "type": "CITY",
          "parentId": 4458,
          "lookupId": "1.4458.31482",
          "url": "https://www.viator.com/x/d31482-ttd?mcid=42383&pid=P00281144&medium=api&api_version=2.0",
          "center": {
            "latitude": 26.22852,
            "longitude": 50.58605
          },
          "children": []
        }
      ]
    },
    {
      "id": 22311,
      "name": "Pakistan",
      "type": "COUNTRY",
      "parentId": 2,
      "lookupId": "2.22311",
      "url": "https://www.viator.com/x/d22311-ttd?mcid=42383&pid=P00281144&medium=api&api_version=2.0",
      "center": {
        "latitude": 29.902,
        "longitude": 69.386647
      },
      "children": [
        {
          "id": 51672,
          "name": "Gilgit",
          "type": "CITY",
          "parentId": 22311,
          "lookupId": "2.22311.51672",
          "url": "https://www.viator.com/x/d51672-ttd?mcid=42383&pid=P00281144&medium=api&api_version=2.0",
          "center": {
            "latitude": 35.91868,
            "longitude": 74.31245
          },
          "children": []
        },
        {
          "id": 51921,
          "name": "Hunza",
          "type": "DISTRICT",
          "parentId": 22311,
          "lookupId": "2.22311.51921",
          "url": "https://www.viator.com/x/d51921-ttd?mcid=42383&pid=P00281144&medium=api&api_version=2.0",
          "center": {
            "latitude": 36.26667,
            "longitude": 74.68333
          },
          "children": []
        },
        {
          "id": 50280,
          "name": "Islamabad",
          "type": "CITY",
          "parentId": 22311,
          "lookupId": "2.22311.50280",
          "url": "https://www.viator.com/x/d50280-ttd?mcid=42383&pid=P00281144&medium=api&api_version=2.0",
          "center": {
            "latitude": 33.6844,
            "longitude": 73.0479
          },
          "children": []
        },
        {
          "id": 50447,
          "name": "Karachi",
          "type": "CITY",
          "parentId": 22311,
          "lookupId": "2.22311.50447",
          "url": "https://www.viator.com/x/d50447-ttd?mcid=42383&pid=P00281144&medium=api&api_version=2.0",
          "center": {
            "latitude": 24.860735,
            "longitude": 67.001137
          },
          "children": []
        },
        {
          "id": 51791,
          "name": "Karimabad",
          "type": "TOWN",
          "parentId": 22311,
          "lookupId": "2.22311.51791",
          "url": "https://www.viator.com/x/d51791-ttd?mcid=42383&pid=P00281144&medium=api&api_version=2.0",
          "center": {
            "latitude": 28.60055,
            "longitude": 70.31205
          },
          "children": []
        },
        {
          "id": 50344,
          "name": "Lahore",
          "type": "CITY",
          "parentId": 22311,
          "lookupId": "2.22311.50344",
          "url": "https://www.viator.com/x/d50344-ttd?mcid=42383&pid=P00281144&medium=api&api_version=2.0",
          "center": {
            "latitude": 31.5204,
            "longitude": 74.3587
          },
          "children": []
        },
        {
          "id": 51865,
          "name": "Shigar",
          "type": "TOWN",
          "parentId": 22311,
          "lookupId": "2.22311.51865",
          "url": "https://www.viator.com/x/d51865-ttd?mcid=42383&pid=P00281144&medium=api&api_version=2.0",
          "center": {
            "latitude": 35.42376,
            "longitude": 75.73911
          },
          "children": []
        },
        {
          "id": 51603,
          "name": "Skardu",
          "type": "CITY",
          "parentId": 22311,
          "lookupId": "2.22311.51603",
          "url": "https://www.viator.com/x/d51603-ttd?mcid=42383&pid=P00281144&medium=api&api_version=2.0",
          "center": {
            "latitude": 35.304519,
            "longitude": 75.635461
          },
          "children": []
        },
        {
          "id": 52014,
          "name": "Sost",
          "type": "VILLAGE",
          "parentId": 22311,
          "lookupId": "2.22311.52014",
          "url": "https://www.viator.com/x/d52014-ttd?mcid=42383&pid=P00281144&medium=api&api_version=2.0",
          "center": {
            "latitude": 36.71074,
            "longitude": 74.81991
          },
          "children": []
        },
        {
          "id": 51936,
          "name": "Swat",
          "type": "REGION",
          "parentId": 22311,
          "lookupId": "2.22311.51936",
          "url": "https://www.viator.com/x/d51936-ttd?mcid=42383&pid=P00281144&medium=api&api_version=2.0",
          "center": {
            "latitude": 35.258151,
            "longitude": 72.518317
          },
          "children": []
        }
      ]
    },
    {
      "id": 31,
      "name": "Cayman Islands",
      "type": "COUNTRY",
      "parentId": 4,
      "lookupId": "4.31",
      "url": "https://www.viator.com/x/d31-ttd?mcid=42383&pid=P00281144&medium=api&api_version=2.0",
      "center": {
        "latitude": 19.2897575435,
        "longitude": -81.3729858398
      },
      "children": [
        {
          "id": 50496,
          "name": "George Town",
          "type": "CITY",
          "parentId": 31,
          "lookupId": "4.31.50496",
          "url": "https://www.viator.com/x/d50496-ttd?mcid=42383&pid=P00281144&medium=api&api_version=2.0",
          "center": {
            "latitude": 19.28434,
            "longitude": -81.336372
          },
          "children": []
        },
        {
          "id": 50485,
          "name": "Grand Cayman",
          "type": "CITY",
          "parentId": 31,
          "lookupId": "4.31.50485",
          "url": "https://www.viator.com/x/d50485-ttd?mcid=42383&pid=P00281144&medium=api&api_version=2.0",
          "center": {
            "latitude": 19.32217,
            "longitude": -81.240868
          },
          "children": []
        },
        {
          "id": 50498,
          "name": "Seven Mile Beach",
          "type": "CITY",
          "parentId": 31,
          "lookupId": "4.31.50498",
          "url": "https://www.viator.com/x/d50498-ttd?mcid=42383&pid=P00281144&medium=api&api_version=2.0",
          "center": {
            "latitude": -42.859379,
            "longitude": 147.507034
          },
          "children": []
        }
      ]
    },
    {
      "id": 37756,
      "name": "Faroe Islands",
      "type": "COUNTRY",
      "parentId": 6,
      "lookupId": "6.37756",
      "url": "https://www.viator.com/x/d37756-ttd?mcid=42383&pid=P00281144&medium=api&api_version=2.0",
      "center": {
        "latitude": 61.8926,
        "longitude": -6.9118
      },
      "children": [
        {
          "id": 51859,
          "name": "Kalsoy",
          "type": "ISLAND",
          "parentId": 37756,
          "lookupId": "6.37756.51859",
          "url": "https://www.viator.com/x/d51859-ttd?mcid=42383&pid=P00281144&medium=api&api_version=2.0",
          "center": {
            "latitude": 62.185604,
            "longitude": -7.058429
          },
          "children": []
        },
        {
          "id": 50244,
          "name": "Streymoy",
          "type": "CITY",
          "parentId": 37756,
          "lookupId": "6.37756.50244",
          "url": "https://www.viator.com/x/d50244-ttd?mcid=42383&pid=P00281144&medium=api&api_version=2.0",
          "center": {
            "latitude": 62.1525,
            "longitude": 7.0754
          },
          "children": []
        }
      ]
    },
    {
      "id": 37758,
      "name": "Mayotte",
      "type": "COUNTRY",
      "parentId": 1,
      "lookupId": "1.37758",
      "url": "https://www.viator.com/x/d37758-ttd?mcid=42383&pid=P00281144&medium=api&api_version=2.0",
      "center": {
        "latitude": -12.809645,
        "longitude": 45.130741
      },
      "children": []
    },
    {
      "id": 37745,
      "name": "Mali",
      "type": "COUNTRY",
      "parentId": 1,
      "lookupId": "1.37745",
      "url": "https://www.viator.com/x/d37745-ttd?mcid=42383&pid=P00281144&medium=api&api_version=2.0",
      "center": {
        "latitude": 17.5707,
        "longitude": -3.9962
      },
      "children": [
        {
          "id": 37746,
          "name": "Bamako",
          "type": "CITY",
          "parentId": 37745,
          "lookupId": "1.37745.37746",
          "url": "https://www.viator.com/x/d37746-ttd?mcid=42383&pid=P00281144&medium=api&api_version=2.0",
          "center": {
            "latitude": 12.6125547,
            "longitude": -8.1355996
          },
          "children": []
        }
      ]
    },
    {
      "id": 36290,
      "name": "Northern Mariana Islands",
      "type": "COUNTRY",
      "parentId": 3,
      "lookupId": "3.36290",
      "url": "https://www.viator.com/x/d36290-ttd?mcid=42383&pid=P00281144&medium=api&api_version=2.0",
      "center": {
        "latitude": 15.0979,
        "longitude": 145.6739
      },
      "children": [
        {
          "id": 36292,
          "name": "Saipan",
          "type": "REGION",
          "parentId": 36290,
          "lookupId": "3.36290.36292",
          "url": "https://www.viator.com/x/d36292-ttd?mcid=42383&pid=P00281144&medium=api&api_version=2.0",
          "center": {
            "latitude": 15.1931853,
            "longitude": 145.6903459
          },
          "children": []
        }
      ]
    },
    {
      "id": 4920,
      "name": "São Tomé and Príncipe",
      "type": "COUNTRY",
      "parentId": 1,
      "lookupId": "1.4920",
      "url": "https://www.viator.com/x/d4920-ttd?mcid=42383&pid=P00281144&medium=api&api_version=2.0",
      "center": {
        "latitude": 0.1864,
        "longitude": 6.6131
      },
      "children": [
        {
          "id": 50704,
          "name": "Sao Tome Island",
          "type": "CITY",
          "parentId": 4920,
          "lookupId": "1.4920.50704",
          "url": "https://www.viator.com/x/d50704-ttd?mcid=42383&pid=P00281144&medium=api&api_version=2.0",
          "center": {
            "latitude": -22.56766,
            "longitude": 17.04003
          },
          "children": []
        }
      ]
    },
    {
      "id": 21797,
      "name": "Luxembourg",
      "type": "COUNTRY",
      "parentId": 6,
      "lookupId": "6.21797",
      "url": "https://www.viator.com/x/d21797-ttd?mcid=42383&pid=P00281144&medium=api&api_version=2.0",
      "center": {
        "latitude": 49.8153,
        "longitude": 6.1296
      },
      "children": [
        {
          "id": 36689,
          "name": "Luxembourg City",
          "type": "CITY",
          "parentId": 21797,
          "lookupId": "6.21797.36689",
          "url": "https://www.viator.com/x/d36689-ttd?mcid=42383&pid=P00281144&medium=api&api_version=2.0",
          "center": {
            "latitude": 49.6075997,
            "longitude": 6.1008508
          },
          "children": []
        }
      ]
    },
    {
      "id": 21795,
      "name": "Andorra",
      "type": "COUNTRY",
      "parentId": 6,
      "lookupId": "6.21795",
      "url": "https://www.viator.com/x/d21795-ttd?mcid=42383&pid=P00281144&medium=api&api_version=2.0",
      "center": {
        "latitude": 42.551345,
        "longitude": 1.606385
      },
      "children": [
        {
          "id": 50643,
          "name": "Andorra la Vella",
          "type": "CITY",
          "parentId": 21795,
          "lookupId": "6.21795.50643",
          "url": "https://www.viator.com/x/d50643-ttd?mcid=42383&pid=P00281144&medium=api&api_version=2.0",
          "center": {
            "latitude": 42.50753,
            "longitude": 1.52182
          },
          "children": []
        }
      ]
    },
    {
      "id": 801,
      "name": "Kenya",
      "type": "COUNTRY",
      "parentId": 1,
      "lookupId": "1.801",
      "url": "https://www.viator.com/x/d801-ttd?mcid=42383&pid=P00281144&medium=api&api_version=2.0",
      "center": {
        "latitude": -0.023559,
        "longitude": 37.906193
      },
      "children": [
        {
          "id": 50431,
          "name": "Amboseli National Park",
          "type": "CITY",
          "parentId": 801,
          "lookupId": "1.801.50431",
          "url": "https://www.viator.com/x/d50431-ttd?mcid=42383&pid=P00281144&medium=api&api_version=2.0",
          "center": {
            "latitude": 39.865952,
            "longitude": -75.179733
          },
          "children": []
        },
        {
          "id": 24331,
          "name": "Central Kenya",
          "type": "REGION",
          "parentId": 801,
          "lookupId": "1.801.24331",
          "url": "https://www.viator.com/x/d24331-ttd?mcid=42383&pid=P00281144&medium=api&api_version=2.0",
          "center": {
            "latitude": -1.79597,
            "longitude": 37.70207
          },
          "children": [
            {
              "id": 50271,
              "name": "Naivasha",
              "type": "CITY",
              "parentId": 24331,
              "lookupId": "1.801.24331.50271",
              "url": "https://www.viator.com/x/d50271-ttd?mcid=42383&pid=P00281144&medium=api&api_version=2.0",
              "center": {
                "latitude": -0.7172,
                "longitude": 36.431
              },
              "children": []
            },
            {
              "id": 50867,
              "name": "Nanyuki",
              "type": "CITY",
              "parentId": 24331,
              "lookupId": "1.801.24331.50867",
              "url": "https://www.viator.com/x/d50867-ttd?mcid=42383&pid=P00281144&medium=api&api_version=2.0",
              "center": {
                "latitude": 0.0110077958,
                "longitude": 37.0764531835
              },
              "children": []
            },
            {
              "id": 50266,
              "name": "Tsavo National Park East",
              "type": "CITY",
              "parentId": 24331,
              "lookupId": "1.801.24331.50266",
              "url": "https://www.viator.com/x/d50266-ttd?mcid=42383&pid=P00281144&medium=api&api_version=2.0",
              "center": {
                "latitude": -2.1833,
                "longitude": 38.4167
              },
              "children": [
                {
                  "id": 51320,
                  "name": "Tsavo National Park West",
                  "type": "NATIONAL_PARK",
                  "parentId": 50266,
                  "lookupId": "1.801.24331.50266.51320",
                  "url": "https://www.viator.com/x/d51320-ttd?mcid=42383&pid=P00281144&medium=api&api_version=2.0",
                  "center": {
                    "latitude": -2.982778,
                    "longitude": 38.466634
                  },
                  "children": []
                }
              ]
            }
          ]
        },
        {
          "id": 27403,
          "name": "Diani Beach",
          "type": "CITY",
          "parentId": 801,
          "lookupId": "1.801.27403",
          "url": "https://www.viator.com/x/d27403-ttd?mcid=42383&pid=P00281144&medium=api&api_version=2.0",
          "center": {
            "latitude": -4.27976,
            "longitude": 39.5947
          },
          "children": []
        },
        {
          "id": 50268,
          "name": "Lake Nakuru National Park",
          "type": "CITY",
          "parentId": 801,
          "lookupId": "1.801.50268",
          "url": "https://www.viator.com/x/d50268-ttd?mcid=42383&pid=P00281144&medium=api&api_version=2.0",
          "center": {
            "latitude": -1.3719,
            "longitude": 34.9381
          },
          "children": []
        },
        {
          "id": 50267,
          "name": "Maasai Mara National Reserve",
          "type": "CITY",
          "parentId": 801,
          "lookupId": "1.801.50267",
          "url": "https://www.viator.com/x/d50267-ttd?mcid=42383&pid=P00281144&medium=api&api_version=2.0",
          "center": {
            "latitude": -1.3719,
            "longitude": 34.9381
          },
          "children": []
        },
        {
          "id": 25668,
          "name": "Malindi",
          "type": "CITY",
          "parentId": 801,
          "lookupId": "1.801.25668",
          "url": "https://www.viator.com/x/d25668-ttd?mcid=42383&pid=P00281144&medium=api&api_version=2.0",
          "center": {
            "latitude": -3.21,
            "longitude": 40.1
          },
          "children": []
        },
        {
          "id": 22167,
          "name": "Mombasa",
          "type": "CITY",
          "parentId": 801,
          "lookupId": "1.801.22167",
          "url": "https://www.viator.com/x/d22167-ttd?mcid=42383&pid=P00281144&medium=api&api_version=2.0",
          "center": {
            "latitude": -4.043833,
            "longitude": 39.67005
          },
          "children": []
        },
        {
          "id": 50432,
          "name": "Mount Kenya National Park",
          "type": "CITY",
          "parentId": 801,
          "lookupId": "1.801.50432",
          "url": "https://www.viator.com/x/d50432-ttd?mcid=42383&pid=P00281144&medium=api&api_version=2.0",
          "center": {
            "latitude": -44.03967,
            "longitude": 169.37924
          },
          "children": []
        },
        {
          "id": 5280,
          "name": "Nairobi",
          "type": "CITY",
          "parentId": 801,
          "lookupId": "1.801.5280",
          "url": "https://www.viator.com/x/d5280-ttd?mcid=42383&pid=P00281144&medium=api&api_version=2.0",
          "center": {
            "latitude": -1.28333,
            "longitude": 36.81667
          },
          "children": []
        },
        {
          "id": 50264,
          "name": "Narok",
          "type": "CITY",
          "parentId": 801,
          "lookupId": "1.801.50264",
          "url": "https://www.viator.com/x/d50264-ttd?mcid=42383&pid=P00281144&medium=api&api_version=2.0",
          "center": {
            "latitude": -1.087543,
            "longitude": 35.877064
          },
          "children": []
        },
        {
          "id": 50980,
          "name": "Rift Valley Province",
          "type": "REGION",
          "parentId": 801,
          "lookupId": "1.801.50980",
          "url": "https://www.viator.com/x/d50980-ttd?mcid=42383&pid=P00281144&medium=api&api_version=2.0",
          "center": {
            "latitude": 1.393644,
            "longitude": 36.075087
          },
          "children": []
        },
        {
          "id": 51372,
          "name": "Shimba Hills National Reserve",
          "type": "NATIONAL_PARK",
          "parentId": 801,
          "lookupId": "1.801.51372",
          "url": "https://www.viator.com/x/d51372-ttd?mcid=42383&pid=P00281144&medium=api&api_version=2.0",
          "center": {
            "latitude": -4.257102,
            "longitude": 39.387844
          },
          "children": []
        },
        {
          "id": 51332,
          "name": "Wasini Island",
          "type": "ISLAND",
          "parentId": 801,
          "lookupId": "1.801.51332",
          "url": "https://www.viator.com/x/d51332-ttd?mcid=42383&pid=P00281144&medium=api&api_version=2.0",
          "center": {
            "latitude": -4.663977,
            "longitude": 39.388138
          },
          "children": []
        }
      ]
    },
    {
      "id": 4733,
      "name": "Madagascar",
      "type": "COUNTRY",
      "parentId": 1,
      "lookupId": "1.4733",
      "url": "https://www.viator.com/x/d4733-ttd?mcid=42383&pid=P00281144&medium=api&api_version=2.0",
      "center": {
        "latitude": -18.7669,
        "longitude": 46.8691
      },
      "children": [
        {
          "id": 51727,
          "name": "Ambalavao",
          "type": "CITY",
          "parentId": 4733,
          "lookupId": "1.4733.51727",
          "url": "https://www.viator.com/x/d51727-ttd?mcid=42383&pid=P00281144&medium=api&api_version=2.0",
          "center": {
            "latitude": -21.83333,
            "longitude": 46.93333
          },
          "children": []
        },
        {
          "id": 30760,
          "name": "Antananarivo",
          "type": "CITY",
          "parentId": 4733,
          "lookupId": "1.4733.30760",
          "url": "https://www.viator.com/x/d30760-ttd?mcid=42383&pid=P00281144&medium=api&api_version=2.0",
          "center": {
            "latitude": -18.87919,
            "longitude": 47.50791
          },
          "children": []
        },
        {
          "id": 51909,
          "name": "Ivato",
          "type": "TOWN",
          "parentId": 4733,
          "lookupId": "1.4733.51909",
          "url": "https://www.viator.com/x/d51909-ttd?mcid=42383&pid=P00281144&medium=api&api_version=2.0",
          "center": {
            "latitude": -19.51667,
            "longitude": 48.8
          },
          "children": []
        },
        {
          "id": 50691,
          "name": "Morondava",
          "type": "CITY",
          "parentId": 4733,
          "lookupId": "1.4733.50691",
          "url": "https://www.viator.com/x/d50691-ttd?mcid=42383&pid=P00281144&medium=api&api_version=2.0",
          "center": {
            "latitude": -20.29673,
            "longitude": 44.2814
          },
          "children": []
        },
        {
          "id": 50692,
          "name": "Nosy Be",
          "type": "CITY",
          "parentId": 4733,
          "lookupId": "1.4733.50692",
          "url": "https://www.viator.com/x/d50692-ttd?mcid=42383&pid=P00281144&medium=api&api_version=2.0",
          "center": {
            "latitude": 51.98719,
            "longitude": 20.796169
          },
          "children": []
        }
      ]
    },
    {
      "id": 4978,
      "name": "Isle of Lewis",
      "type": "ISLAND",
      "parentId": 50706,
      "lookupId": "6.60457.732.50706.4978",
      "url": "https://www.viator.com/x/d4978-ttd?mcid=42383&pid=P00281144&medium=api&api_version=2.0",
      "center": {
        "latitude": 58.2132,
        "longitude": -6.5227
      },
      "children": [
        {
          "id": 4979,
          "name": "Stornoway",
          "type": "CITY",
          "parentId": 4978,
          "lookupId": "6.60457.732.4978.4979",
          "url": "https://www.viator.com/x/d4979-ttd?mcid=42383&pid=P00281144&medium=api&api_version=2.0",
          "center": {
            "latitude": 58.209435,
            "longitude": -6.384869
          },
          "children": []
        }
      ]
    },
    {
      "id": 809,
      "name": "British Virgin Islands",
      "type": "COUNTRY",
      "parentId": 4,
      "lookupId": "4.809",
      "url": "https://www.viator.com/x/d809-ttd?mcid=42383&pid=P00281144&medium=api&api_version=2.0",
      "center": {
        "latitude": 18.420695,
        "longitude": -64.639968
      },
      "children": [
        {
          "id": 50314,
          "name": "Tortola",
          "type": "CITY",
          "parentId": 809,
          "lookupId": "4.809.50314",
          "url": "https://www.viator.com/x/d50314-ttd?mcid=42383&pid=P00281144&medium=api&api_version=2.0",
          "center": {
            "latitude": 18.435955,
            "longitude": -64.633226
          },
          "children": []
        }
      ]
    },
    {
      "id": 21768,
      "name": "Bangladesh",
      "type": "COUNTRY",
      "parentId": 2,
      "lookupId": "2.21768",
      "url": "https://www.viator.com/x/d21768-ttd?mcid=42383&pid=P00281144&medium=api&api_version=2.0",
      "center": {
        "latitude": 23.685,
        "longitude": 90.3563
      },
      "children": [
        {
          "id": 23408,
          "name": "Chittagong",
          "type": "CITY",
          "parentId": 21768,
          "lookupId": "2.21768.23408",
          "url": "https://www.viator.com/x/d23408-ttd?mcid=42383&pid=P00281144&medium=api&api_version=2.0",
          "center": {
            "latitude": 22.34754,
            "longitude": 91.81233
          },
          "children": []
        },
        {
          "id": 22495,
          "name": "Dhaka",
          "type": "CITY",
          "parentId": 21768,
          "lookupId": "2.21768.22495",
          "url": "https://www.viator.com/x/d22495-ttd?mcid=42383&pid=P00281144&medium=api&api_version=2.0",
          "center": {
            "latitude": 23.81033,
            "longitude": 90.41252
          },
          "children": []
        },
        {
          "id": 24947,
          "name": "Rajshahi",
          "type": "CITY",
          "parentId": 21768,
          "lookupId": "2.21768.24947",
          "url": "https://www.viator.com/x/d24947-ttd?mcid=42383&pid=P00281144&medium=api&api_version=2.0",
          "center": {
            "latitude": 24.377454,
            "longitude": 88.639005
          },
          "children": []
        },
        {
          "id": 30635,
          "name": "Sylhet",
          "type": "CITY",
          "parentId": 21768,
          "lookupId": "2.21768.30635",
          "url": "https://www.viator.com/x/d30635-ttd?mcid=42383&pid=P00281144&medium=api&api_version=2.0",
          "center": {
            "latitude": 24.90454,
            "longitude": 91.8611
          },
          "children": []
        }
      ]
    },
    {
      "id": 21767,
      "name": "Mongolia",
      "type": "COUNTRY",
      "parentId": 2,
      "lookupId": "2.21767",
      "url": "https://www.viator.com/x/d21767-ttd?mcid=42383&pid=P00281144&medium=api&api_version=2.0",
      "center": {
        "latitude": 46.8625,
        "longitude": 103.8467
      },
      "children": [
        {
          "id": 51837,
          "name": "Arkhangai Province",
          "type": "PROVINCE",
          "parentId": 21767,
          "lookupId": "2.21767.51837",
          "url": "https://www.viator.com/x/d51837-ttd?mcid=42383&pid=P00281144&medium=api&api_version=2.0",
          "center": {
            "latitude": 47.913206,
            "longitude": 101.256279
          },
          "children": []
        },
        {
          "id": 51824,
          "name": "Bayan-Olgii Province",
          "type": "PROVINCE",
          "parentId": 21767,
          "lookupId": "2.21767.51824",
          "url": "https://www.viator.com/x/d51824-ttd?mcid=42383&pid=P00281144&medium=api&api_version=2.0",
          "center": {
            "latitude": 48.796451,
            "longitude": 89.819475
          },
          "children": []
        },
        {
          "id": 51759,
          "name": "Dalanzadgad",
          "type": "CITY",
          "parentId": 21767,
          "lookupId": "2.21767.51759",
          "url": "https://www.viator.com/x/d51759-ttd?mcid=42383&pid=P00281144&medium=api&api_version=2.0",
          "center": {
            "latitude": 43.578486,
            "longitude": 104.427527
          },
          "children": []
        },
        {
          "id": 52077,
          "name": "Gorkhi Terelj National Park",
          "type": "NATIONAL_PARK",
          "parentId": 21767,
          "lookupId": "2.21767.52077",
          "url": "https://www.viator.com/x/d52077-ttd?mcid=42383&pid=P00281144&medium=api&api_version=2.0",
          "center": {
            "latitude": 52.073388,
            "longitude": 8.417466
          },
          "children": []
        },
        {
          "id": 51796,
          "name": "Kharkhorin",
          "type": "TOWN",
          "parentId": 21767,
          "lookupId": "2.21767.51796",
          "url": "https://www.viator.com/x/d51796-ttd?mcid=42383&pid=P00281144&medium=api&api_version=2.0",
          "center": {
            "latitude": 47.19753,
            "longitude": 102.82379
          },
          "children": []
        },
        {
          "id": 51705,
          "name": "Olgiy",
          "type": "CITY",
          "parentId": 21767,
          "lookupId": "2.21767.51705",
          "url": "https://www.viator.com/x/d51705-ttd?mcid=42383&pid=P00281144&medium=api&api_version=2.0",
          "center": {
            "latitude": 49.02571,
            "longitude": 92.03659
          },
          "children": []
        },
        {
          "id": 51797,
          "name": "Tsetserleg",
          "type": "CITY",
          "parentId": 21767,
          "lookupId": "2.21767.51797",
          "url": "https://www.viator.com/x/d51797-ttd?mcid=42383&pid=P00281144&medium=api&api_version=2.0",
          "center": {
            "latitude": 47.476944,
            "longitude": 101.450278
          },
          "children": []
        },
        {
          "id": 22494,
          "name": "Ulaanbaatar",
          "type": "CITY",
          "parentId": 21767,
          "lookupId": "2.21767.22494",
          "url": "https://www.viator.com/x/d22494-ttd?mcid=42383&pid=P00281144&medium=api&api_version=2.0",
          "center": {
            "latitude": 47.888687,
            "longitude": 106.915422
          },
          "children": []
        }
      ]
    },
    {
      "id": 4508,
      "name": "French Guiana",
      "type": "COUNTRY",
      "parentId": 9,
      "lookupId": "9.4508",
      "url": "https://www.viator.com/x/d4508-ttd?mcid=42383&pid=P00281144&medium=api&api_version=2.0",
      "center": {
        "latitude": 3.9339,
        "longitude": -53.1258
      },
      "children": []
    },
    {
      "id": 814,
      "name": "Dominica",
      "type": "COUNTRY",
      "parentId": 4,
      "lookupId": "4.814",
      "url": "https://www.viator.com/x/d814-ttd?mcid=42383&pid=P00281144&medium=api&api_version=2.0",
      "center": {
        "latitude": 15.414999,
        "longitude": -61.370976
      },
      "children": []
    },
    {
      "id": 1004,
      "name": "Liechtenstein",
      "type": "COUNTRY",
      "parentId": 6,
      "lookupId": "6.1004",
      "url": "https://www.viator.com/x/d1004-ttd?mcid=42383&pid=P00281144&medium=api&api_version=2.0",
      "center": {
        "latitude": 47.144054,
        "longitude": 9.551835
      },
      "children": [
        {
          "id": 50933,
          "name": "Vaduz",
          "type": "CITY",
          "parentId": 1004,
          "lookupId": "6.1004.50933",
          "url": "https://www.viator.com/x/d50933-ttd?mcid=42383&pid=P00281144&medium=api&api_version=2.0",
          "center": {
            "latitude": 47.167938,
            "longitude": 9.512335
          },
          "children": []
        }
      ]
    },
    {
      "id": 4514,
      "name": "Uruguay",
      "type": "COUNTRY",
      "parentId": 9,
      "lookupId": "9.4514",
      "url": "https://www.viator.com/x/d4514-ttd?mcid=42383&pid=P00281144&medium=api&api_version=2.0",
      "center": {
        "latitude": -32.5228,
        "longitude": -55.7658
      },
      "children": [
        {
          "id": 22385,
          "name": "Colonia del Sacramento",
          "type": "CITY",
          "parentId": 4514,
          "lookupId": "9.4514.22385",
          "url": "https://www.viator.com/x/d22385-ttd?mcid=42383&pid=P00281144&medium=api&api_version=2.0",
          "center": {
            "latitude": -34.48,
            "longitude": -57.84
          },
          "children": []
        },
        {
          "id": 4515,
          "name": "Montevideo",
          "type": "CITY",
          "parentId": 4514,
          "lookupId": "9.4514.4515",
          "url": "https://www.viator.com/x/d4515-ttd?mcid=42383&pid=P00281144&medium=api&api_version=2.0",
          "center": {
            "latitude": -34.8836111,
            "longitude": -56.1819444
          },
          "children": []
        },
        {
          "id": 4906,
          "name": "Punta del Este",
          "type": "CITY",
          "parentId": 4514,
          "lookupId": "9.4514.4906",
          "url": "https://www.viator.com/x/d4906-ttd?mcid=42383&pid=P00281144&medium=api&api_version=2.0",
          "center": {
            "latitude": -34.9666667,
            "longitude": -54.95
          },
          "children": []
        }
      ]
    },
    {
      "id": 4786,
      "name": "Tonga",
      "type": "COUNTRY",
      "parentId": 3,
      "lookupId": "3.4786",
      "url": "https://www.viator.com/x/d4786-ttd?mcid=42383&pid=P00281144&medium=api&api_version=2.0",
      "center": {
        "latitude": 21.179,
        "longitude": 175.1982
      },
      "children": [
        {
          "id": 50472,
          "name": "Tongatapu Island",
          "type": "CITY",
          "parentId": 4786,
          "lookupId": "3.4786.50472",
          "url": "https://www.viator.com/x/d50472-ttd?mcid=42383&pid=P00281144&medium=api&api_version=2.0",
          "center": {
            "latitude": -40.7762,
            "longitude": 173.93678
          },
          "children": []
        }
      ]
    },
    {
      "id": 4788,
      "name": "Cook Islands",
      "type": "COUNTRY",
      "parentId": 3,
      "lookupId": "3.4788",
      "url": "https://www.viator.com/x/d4788-ttd?mcid=42383&pid=P00281144&medium=api&api_version=2.0",
      "center": {
        "latitude": -21.2367,
        "longitude": -159.7777
      },
      "children": [
        {
          "id": 24160,
          "name": "Aitutaki",
          "type": "CITY",
          "parentId": 4788,
          "lookupId": "3.4788.24160",
          "url": "https://www.viator.com/x/d24160-ttd?mcid=42383&pid=P00281144&medium=api&api_version=2.0",
          "center": {
            "latitude": -18.8876,
            "longitude": -159.787
          },
          "children": []
        },
        {
          "id": 22128,
          "name": "Rarotonga",
          "type": "REGION",
          "parentId": 4788,
          "lookupId": "3.4788.22128",
          "url": "https://www.viator.com/x/d22128-ttd?mcid=42383&pid=P00281144&medium=api&api_version=2.0",
          "center": {
            "latitude": -21.2357288,
            "longitude": -159.8477664
          },
          "children": [
            {
              "id": 22211,
              "name": "Avarua",
              "type": "CITY",
              "parentId": 22128,
              "lookupId": "3.4788.22128.22211",
              "url": "https://www.viator.com/x/d22211-ttd?mcid=42383&pid=P00281144&medium=api&api_version=2.0",
              "center": {
                "latitude": -21.212495,
                "longitude": -159.777733
              },
              "children": []
            }
          ]
        }
      ]
    },
    {
      "id": 4316,
      "name": "Martinique",
      "type": "COUNTRY",
      "parentId": 4,
      "lookupId": "4.4316",
      "url": "https://www.viator.com/x/d4316-ttd?mcid=42383&pid=P00281144&medium=api&api_version=2.0",
      "center": {
        "latitude": 14.6339221,
        "longitude": -61.2939697
      },
      "children": [
        {
          "id": 50911,
          "name": "Fort-de-France",
          "type": "CITY",
          "parentId": 4316,
          "lookupId": "4.4316.50911",
          "url": "https://www.viator.com/x/d50911-ttd?mcid=42383&pid=P00281144&medium=api&api_version=2.0",
          "center": {
            "latitude": 14.60892,
            "longitude": -61.07334
          },
          "children": []
        },
        {
          "id": 50956,
          "name": "Sainte-Luce",
          "type": "TOWN",
          "parentId": 4316,
          "lookupId": "4.4316.50956",
          "url": "https://www.viator.com/x/d50956-ttd?mcid=42383&pid=P00281144&medium=api&api_version=2.0",
          "center": {
            "latitude": 14.46733,
            "longitude": -60.92708
          },
          "children": []
        },
        {
          "id": 50929,
          "name": "Trois-Ilets",
          "type": "TOWN",
          "parentId": 4316,
          "lookupId": "4.4316.50929",
          "url": "https://www.viator.com/x/d50929-ttd?mcid=42383&pid=P00281144&medium=api&api_version=2.0",
          "center": {
            "latitude": 14.5390082354,
            "longitude": -61.069464305
          },
          "children": []
        }
      ]
    },
    {
      "id": 4324,
      "name": "Haiti",
      "type": "COUNTRY",
      "parentId": 4,
      "lookupId": "4.4324",
      "url": "https://www.viator.com/x/d4324-ttd?mcid=42383&pid=P00281144&medium=api&api_version=2.0",
      "center": {
        "latitude": 18.9712,
        "longitude": 72.2852
      },
      "children": []
    },
    {
      "id": 4326,
      "name": "St Barthelemy",
      "type": "COUNTRY",
      "parentId": 4,
      "lookupId": "4.4326",
      "url": "https://www.viator.com/x/d4326-ttd?mcid=42383&pid=P00281144&medium=api&api_version=2.0",
      "center": {
        "latitude": 17.9139,
        "longitude": -62.8339
      },
      "children": []
    },
    {
      "id": 5438,
      "name": "Laos",
      "type": "COUNTRY",
      "parentId": 2,
      "lookupId": "2.5438",
      "url": "https://www.viator.com/x/d5438-ttd?mcid=42383&pid=P00281144&medium=api&api_version=2.0",
      "center": {
        "latitude": 19.8562699977,
        "longitude": 102.4954959989
      },
      "children": [
        {
          "id": 51658,
          "name": "Luang Namtha",
          "type": "TOWN",
          "parentId": 5438,
          "lookupId": "2.5438.51658",
          "url": "https://www.viator.com/x/d51658-ttd?mcid=42383&pid=P00281144&medium=api&api_version=2.0",
          "center": {
            "latitude": 20.9486,
            "longitude": 101.40188
          },
          "children": []
        },
        {
          "id": 5466,
          "name": "Luang Prabang",
          "type": "CITY",
          "parentId": 5438,
          "lookupId": "2.5438.5466",
          "url": "https://www.viator.com/x/d5466-ttd?mcid=42383&pid=P00281144&medium=api&api_version=2.0",
          "center": {
            "latitude": 19.8833959016,
            "longitude": 102.1346874005
          },
          "children": []
        },
        {
          "id": 51758,
          "name": "Pak Beng",
          "type": "VILLAGE",
          "parentId": 5438,
          "lookupId": "2.5438.51758",
          "url": "https://www.viator.com/x/d51758-ttd?mcid=42383&pid=P00281144&medium=api&api_version=2.0",
          "center": {
            "latitude": 19.8929,
            "longitude": 101.13647
          },
          "children": []
        },
        {
          "id": 28360,
          "name": "Pakse",
          "type": "CITY",
          "parentId": 5438,
          "lookupId": "2.5438.28360",
          "url": "https://www.viator.com/x/d28360-ttd?mcid=42383&pid=P00281144&medium=api&api_version=2.0",
          "center": {
            "latitude": 15.11051,
            "longitude": 105.81729
          },
          "children": []
        },
        {
          "id": 26877,
          "name": "Phonsavan",
          "type": "CITY",
          "parentId": 5438,
          "lookupId": "2.5438.26877",
          "url": "https://www.viator.com/x/d26877-ttd?mcid=42383&pid=P00281144&medium=api&api_version=2.0",
          "center": {
            "latitude": 19.45208,
            "longitude": 103.18557
          },
          "children": []
        },
        {
          "id": 51846,
          "name": "Tad Lo",
          "type": "VILLAGE",
          "parentId": 5438,
          "lookupId": "2.5438.51846",
          "url": "https://www.viator.com/x/d51846-ttd?mcid=42383&pid=P00281144&medium=api&api_version=2.0",
          "center": {
            "latitude": 15.54123,
            "longitude": 106.2656
          },
          "children": []
        },
        {
          "id": 24349,
          "name": "Vang Vieng",
          "type": "CITY",
          "parentId": 5438,
          "lookupId": "2.5438.24349",
          "url": "https://www.viator.com/x/d24349-ttd?mcid=42383&pid=P00281144&medium=api&api_version=2.0",
          "center": {
            "latitude": 18.9194,
            "longitude": 102.4477
          },
          "children": []
        },
        {
          "id": 5481,
          "name": "Vientiane",
          "type": "CITY",
          "parentId": 5438,
          "lookupId": "2.5438.5481",
          "url": "https://www.viator.com/x/d5481-ttd?mcid=42383&pid=P00281144&medium=api&api_version=2.0",
          "center": {
            "latitude": 17.9666667,
            "longitude": 102.6
          },
          "children": []
        }
      ]
    },
    {
      "id": 29094,
      "name": "Western Sahara",
      "type": "COUNTRY",
      "parentId": 1,
      "lookupId": "1.29094",
      "url": "https://www.viator.com/x/d29094-ttd?mcid=42383&pid=P00281144&medium=api&api_version=2.0",
      "center": {
        "latitude": 24.009,
        "longitude": -17.5575
      },
      "children": []
    },
    {
      "id": 4131,
      "name": "Honduras",
      "type": "COUNTRY",
      "parentId": 9,
      "lookupId": "9.4131",
      "url": "https://www.viator.com/x/d4131-ttd?mcid=42383&pid=P00281144&medium=api&api_version=2.0",
      "center": {
        "latitude": 15.199999,
        "longitude": -86.241905
      },
      "children": [
        {
          "id": 5199,
          "name": "Copan",
          "type": "CITY",
          "parentId": 4131,
          "lookupId": "9.4131.5199",
          "url": "https://www.viator.com/x/d5199-ttd?mcid=42383&pid=P00281144&medium=api&api_version=2.0",
          "center": {
            "latitude": 14.766667,
            "longitude": -88.783333
          },
          "children": []
        },
        {
          "id": 24830,
          "name": "La Ceiba",
          "type": "CITY",
          "parentId": 4131,
          "lookupId": "9.4131.24830",
          "url": "https://www.viator.com/x/d24830-ttd?mcid=42383&pid=P00281144&medium=api&api_version=2.0",
          "center": {
            "latitude": 15.770643,
            "longitude": -86.795491
          },
          "children": []
        },
        {
          "id": 4132,
          "name": "Roatan",
          "type": "CITY",
          "parentId": 4131,
          "lookupId": "9.4131.4132",
          "url": "https://www.viator.com/x/d4132-ttd?mcid=42383&pid=P00281144&medium=api&api_version=2.0",
          "center": {
            "latitude": 16.3240932824,
            "longitude": -86.5145874023
          },
          "children": []
        },
        {
          "id": 28423,
          "name": "San Pedro Sula",
          "type": "CITY",
          "parentId": 4131,
          "lookupId": "9.4131.28423",
          "url": "https://www.viator.com/x/d28423-ttd?mcid=42383&pid=P00281144&medium=api&api_version=2.0",
          "center": {
            "latitude": 15.51492,
            "longitude": -87.99227
          },
          "children": []
        },
        {
          "id": 23163,
          "name": "Tegucigalpa",
          "type": "CITY",
          "parentId": 4131,
          "lookupId": "9.4131.23163",
          "url": "https://www.viator.com/x/d23163-ttd?mcid=42383&pid=P00281144&medium=api&api_version=2.0",
          "center": {
            "latitude": 14.072275,
            "longitude": -87.192136
          },
          "children": []
        }
      ]
    },
    {
      "id": 4141,
      "name": "Malta",
      "type": "COUNTRY",
      "parentId": 6,
      "lookupId": "6.4141",
      "url": "https://www.viator.com/x/d4141-ttd?mcid=42383&pid=P00281144&medium=api&api_version=2.0",
      "center": {
        "latitude": 35.937496,
        "longitude": 14.375416
      },
      "children": [
        {
          "id": 51127,
          "name": "Cospicua (Bormla)",
          "type": "CITY",
          "parentId": 4141,
          "lookupId": "6.4141.51127",
          "url": "https://www.viator.com/x/d51127-ttd?mcid=42383&pid=P00281144&medium=api&api_version=2.0",
          "center": {
            "latitude": 35.88556,
            "longitude": 14.5275
          },
          "children": []
        },
        {
          "id": 28021,
          "name": "Gozo",
          "type": "REGION",
          "parentId": 4141,
          "lookupId": "6.4141.28021",
          "url": "https://www.viator.com/x/d28021-ttd?mcid=42383&pid=P00281144&medium=api&api_version=2.0",
          "center": {
            "latitude": 36.0443,
            "longitude": 14.25122
          },
          "children": []
        },
        {
          "id": 60460,
          "name": "Mdina",
          "type": "CITY",
          "parentId": 4141,
          "lookupId": "6.4141.60460",
          "url": "https://www.viator.com/x/d60460-ttd?mcid=42383&pid=P00281144&medium=api&api_version=2.0",
          "center": {
            "latitude": 35.8868563010054,
            "longitude": 14.4031357754741
          },
          "children": []
        },
        {
          "id": 25688,
          "name": "Mellieha",
          "type": "CITY",
          "parentId": 4141,
          "lookupId": "6.4141.25688",
          "url": "https://www.viator.com/x/d25688-ttd?mcid=42383&pid=P00281144&medium=api&api_version=2.0",
          "center": {
            "latitude": 35.9564,
            "longitude": 14.3622
          },
          "children": []
        },
        {
          "id": 4295,
          "name": "Mgarr",
          "type": "CITY",
          "parentId": 4141,
          "lookupId": "6.4141.4295",
          "url": "https://www.viator.com/x/d4295-ttd?mcid=42383&pid=P00281144&medium=api&api_version=2.0",
          "center": {
            "latitude": 35.91893,
            "longitude": 14.36173
          },
          "children": []
        },
        {
          "id": 50936,
          "name": "Rabat",
          "type": "TOWN",
          "parentId": 4141,
          "lookupId": "6.4141.50936",
          "url": "https://www.viator.com/x/d50936-ttd?mcid=42383&pid=P00281144&medium=api&api_version=2.0",
          "center": {
            "latitude": 35.881331,
            "longitude": 14.397894
          },
          "children": []
        },
        {
          "id": 4142,
          "name": "Valletta",
          "type": "CITY",
          "parentId": 4141,
          "lookupId": "6.4141.4142",
          "url": "https://www.viator.com/x/d4142-ttd?mcid=42383&pid=P00281144&medium=api&api_version=2.0",
          "center": {
            "latitude": 35.9009224695,
            "longitude": 14.5093989372
          },
          "children": []
        }
      ]
    },
    {
      "id": 4146,
      "name": "Estonia",
      "type": "COUNTRY",
      "parentId": 6,
      "lookupId": "6.4146",
      "url": "https://www.viator.com/x/d4146-ttd?mcid=42383&pid=P00281144&medium=api&api_version=2.0",
      "center": {
        "latitude": 58.595272,
        "longitude": 25.013607
      },
      "children": [
        {
          "id": 51814,
          "name": "Lahemaa National Park",
          "type": "NATIONAL_PARK",
          "parentId": 4146,
          "lookupId": "6.4146.51814",
          "url": "https://www.viator.com/x/d51814-ttd?mcid=42383&pid=P00281144&medium=api&api_version=2.0",
          "center": {
            "latitude": 59.5458,
            "longitude": 25.80496
          },
          "children": []
        },
        {
          "id": 25816,
          "name": "Pärnu",
          "type": "CITY",
          "parentId": 4146,
          "lookupId": "6.4146.25816",
          "url": "https://www.viator.com/x/d25816-ttd?mcid=42383&pid=P00281144&medium=api&api_version=2.0",
          "center": {
            "latitude": 58.385733,
            "longitude": 24.496666
          },
          "children": [
            {
              "id": 51993,
              "name": "Kabli",
              "type": "VILLAGE",
              "parentId": 25816,
              "lookupId": "6.4146.25816.51993",
              "url": "https://www.viator.com/x/d51993-ttd?mcid=42383&pid=P00281144&medium=api&api_version=2.0",
              "center": {
                "latitude": 58.00417,
                "longitude": 24.44139
              },
              "children": []
            }
          ]
        },
        {
          "id": 4147,
          "name": "Tallinn",
          "type": "CITY",
          "parentId": 4146,
          "lookupId": "6.4146.4147",
          "url": "https://www.viator.com/x/d4147-ttd?mcid=42383&pid=P00281144&medium=api&api_version=2.0",
          "center": {
            "latitude": 59.4473003211,
            "longitude": 24.7710800171
          },
          "children": []
        },
        {
          "id": 25554,
          "name": "Tartu",
          "type": "CITY",
          "parentId": 4146,
          "lookupId": "6.4146.25554",
          "url": "https://www.viator.com/x/d25554-ttd?mcid=42383&pid=P00281144&medium=api&api_version=2.0",
          "center": {
            "latitude": 58.3839,
            "longitude": 26.7099
          },
          "children": []
        }
      ]
    },
    {
      "id": 4393,
      "name": "Tunisia",
      "type": "COUNTRY",
      "parentId": 1,
      "lookupId": "1.4393",
      "url": "https://www.viator.com/x/d4393-ttd?mcid=42383&pid=P00281144&medium=api&api_version=2.0",
      "center": {
        "latitude": 34.104283,
        "longitude": 9.5584
      },
      "children": [
        {
          "id": 27430,
          "name": "Djerba",
          "type": "CITY",
          "parentId": 4393,
          "lookupId": "1.4393.27430",
          "url": "https://www.viator.com/x/d27430-ttd?mcid=42383&pid=P00281144&medium=api&api_version=2.0",
          "center": {
            "latitude": 33.8076,
            "longitude": 10.84515
          },
          "children": []
        },
        {
          "id": 50632,
          "name": "Douz",
          "type": "CITY",
          "parentId": 4393,
          "lookupId": "1.4393.50632",
          "url": "https://www.viator.com/x/d50632-ttd?mcid=42383&pid=P00281144&medium=api&api_version=2.0",
          "center": {
            "latitude": 33.459759,
            "longitude": 9.0244
          },
          "children": []
        },
        {
          "id": 4394,
          "name": "Gabes",
          "type": "CITY",
          "parentId": 4393,
          "lookupId": "1.4393.4394",
          "url": "https://www.viator.com/x/d4394-ttd?mcid=42383&pid=P00281144&medium=api&api_version=2.0",
          "center": {
            "latitude": 33.886961,
            "longitude": 10.102057
          },
          "children": []
        },
        {
          "id": 4457,
          "name": "Hammamet",
          "type": "CITY",
          "parentId": 4393,
          "lookupId": "1.4393.4457",
          "url": "https://www.viator.com/x/d4457-ttd?mcid=42383&pid=P00281144&medium=api&api_version=2.0",
          "center": {
            "latitude": 36.406923,
            "longitude": 10.620003
          },
          "children": []
        },
        {
          "id": 24335,
          "name": "Monastir",
          "type": "CITY",
          "parentId": 4393,
          "lookupId": "1.4393.24335",
          "url": "https://www.viator.com/x/d24335-ttd?mcid=42383&pid=P00281144&medium=api&api_version=2.0",
          "center": {
            "latitude": 35.764654,
            "longitude": 10.813523
          },
          "children": []
        },